,day,emplacement_pk_start,index,pk,name,latitude,longitude,trip_per_day_2022
0,178,1394,9,9.0,LaSalle / 90e avenue,45.417294,-73.6443,7.831460674157303
1,201,6682,10,10.0,Métro Angrignon (Lamont /  des Trinitaires),45.44691,-73.60363,33.243781094527364
2,202,11992,13,13.0,Métro de l'Église (Ross / de l'Église),45.462726,-73.565959,59.366336633663366
3,200,3739,17,17.0,Tolhurst / Fleury,45.544149,-73.66752,18.695
4,28,1256,33,33.0,University / des Pins,45.508203,-73.580112,44.857142857142854
5,202,25308,38,38.0,Métro Vendôme (de Marlowe / de Maisonneuve),45.473868,-73.604538,125.2871287128713
6,202,19728,43,43.0,Métro Université de Montréal (Édouard-Montpetit / Louis-Collin),45.50367,-73.61848,97.66336633663366
7,104,18115,47,47.0,Métro Guy-Concordia (Guy / St-Catherine),45.495045,-73.57783,174.18269230769232
8,201,3213,65,65.0,Bel Air / St-Antoine,45.482778,-73.584621,15.985074626865671
9,194,3212,75,75.0,St-Joseph / 8e avenue Lachine,45.43155,-73.67112,16.556701030927837
10,176,668,78,78.0,8e avenue / Notre-Dame Lachine,45.434898,-73.670819,3.7954545454545454
11,197,1226,79,79.0,Victoria / 18e avenue Lachine,45.435996,-73.680111,6.223350253807107
12,202,29073,84,84.0,Parthenais / du Mont-Royal,45.536346,-73.57131,143.9257425742574
13,201,4966,86,86.0,Parc Pratt (Dunlop / Van Horne),45.515007,-73.619788,24.70646766169154
14,85,2630,89,89.0,Darling / Sherbrooke,45.545328,-73.556352,30.941176470588236
15,202,16586,92,92.0,Métro Rosemont (de St-Vallier / Rosemont),45.531783,-73.597793,82.10891089108911
16,202,9360,99,99.0,7e avenue / St-Joseph Rosemont,45.547108,-73.569367,46.336633663366335
17,202,9588,100,100.0,16e avenue / St-Joseph,45.55287,-73.565631,47.46534653465346
18,200,5751,125,125.0,Cité des Arts du Cirque (Paul Boutet / des Regrattiers),45.559872,-73.615541,28.755
19,201,4644,126,126.0,Rousselot / Jarry,45.550899,-73.62108,23.104477611940297
20,104,3646,129,129.0,de la Salle / Ontario,45.551862,-73.540228,35.05769230769231
21,131,713,132,132.0,St-Charles / Labonté,45.535266,-73.51398,5.442748091603053
22,202,16641,135,135.0,St-Alexandre / Ste-Catherine,45.505359,-73.567741,82.38118811881188
23,202,17176,137,137.0,Jeanne-d'Arc / Ontario,45.549598,-73.541874,85.02970297029702
24,202,6888,139,139.0,d'Orléans / Hochelaga,45.550768,-73.549427,34.0990099009901
25,202,11628,141,141.0,Marché Maisonneuve,45.553219,-73.539782,57.56435643564357
26,202,7540,142,142.0,Ontario / Sicard,45.556262,-73.537441,37.32673267326733
27,202,6319,143,143.0,de Ville-Marie / Ste-Catherine,45.557921,-73.529147,31.282178217821784
28,202,7786,144,144.0,Ontario / Viau,45.559482,-73.535496,38.54455445544554
29,202,24314,145,145.0,Gauthier / Papineau,45.529666,-73.567336,120.36633663366337
30,198,14018,146,146.0,Gauthier / de Lorimier,45.531674,-73.565413,70.79797979797979
31,202,10168,147,147.0,Gauthier / Parthenais,45.532926,-73.56378,50.336633663366335
32,202,12775,148,148.0,de Bordeaux / Marie-Anne,45.533409,-73.570657,63.242574257425744
33,202,16099,149,149.0,des Érables / Rachel,45.533547,-73.566867,79.6980198019802
34,201,10908,152,152.0,Bercy / Rachel,45.538403,-73.561964,54.26865671641791
35,202,11937,153,153.0,Ste-Catherine / Dezery,45.539385,-73.541,59.09405940594059
36,202,15849,154,154.0,Dézéry / Ontario,45.54111,-73.54755,78.46039603960396
37,202,14206,155,155.0,Métro Préfontaine (Moreau / Hochelaga),45.54178,-73.555714,70.32673267326733
38,201,8826,156,156.0,Valois / Ste-Catherine,45.54523,-73.53725,43.91044776119403
39,202,5309,157,157.0,St-Germain / Hochelaga,45.543699,-73.553673,26.282178217821784
40,202,23573,158,158.0,Aylwin / Ontario,45.544284,-73.54534,116.6980198019802
41,202,16451,159,159.0,Métro Joliette  (Joliette / Hochelaga),45.546907,-73.551557,81.44059405940594
42,202,7213,161,161.0,Nicolet / Sherbrooke,45.549695,-73.554647,35.70792079207921
43,202,4912,162,162.0,Métro Assomption (Chauveau / de l'Assomption),45.569789,-73.548081,24.316831683168317
44,89,2651,164,164.0,Métro Cadillac (de Cadillac / Sherbrooke),45.576963,-73.546836,29.786516853932586
45,89,2651,164,164.0,Cadillac / Sherbrooke,45.576963,-73.546836,29.786516853932586
46,201,2565,165,165.0,Pierre-de-Coubertin / Langelier,45.580315,-73.535314,12.761194029850746
47,201,4809,166,166.0,Métro Langelier (Langelier / Sherbrooke),45.582847,-73.542476,23.925373134328357
48,202,45754,167,167.0,Boyer / du Mont-Royal,45.527432,-73.579917,226.5049504950495
49,185,23133,168,168.0,Calixa-Lavallée / Rachel,45.527795,-73.571939,125.04324324324324
50,201,37938,169,169.0,de Brébeuf / du Mont-Royal,45.529408,-73.578154,188.7462686567164
51,202,12654,170,170.0,de Lanaudière / Marie-Anne,45.529326,-73.574806,62.64356435643565
52,202,21042,171,171.0,Marquette / Rachel,45.529802,-73.57029,104.16831683168317
53,202,52632,173,173.0,Marquette / du Mont-Royal,45.53229,-73.57544,260.55445544554453
54,185,28382,175,175.0,Chabot / du Mont-Royal,45.534185,-73.573589,153.4162162162162
55,186,9079,176,176.0,Cartier / St-Joseph,45.535828,-73.57869,48.81182795698925
56,202,10764,177,177.0,de Bordeaux / Gilford,45.53611,-73.576287,53.28712871287129
57,202,20528,179,179.0,Messier / du Mont-Royal,45.537114,-73.571003,101.62376237623762
58,202,16225,180,180.0,Laurier / de Bordeaux,45.537205,-73.579254,80.32178217821782
59,202,13163,181,181.0,Cartier / Masson,45.538021,-73.583524,65.16336633663366
60,202,9144,182,182.0,Chapleau / du Mont-Royal,45.53867,-73.56936,45.26732673267327
61,202,13208,183,183.0,de Bordeaux / Masson,45.538984,-73.582445,65.38613861386139
62,202,8051,184,184.0,Fullum / Gilford,45.539224,-73.573837,39.85643564356435
63,201,6436,185,185.0,Parc des Rapides (LaSalle / 6e avenue),45.429471,-73.593099,32.01990049751244
64,201,4061,186,186.0,LaSalle / Crawford,45.437914,-73.58274,20.203980099502488
65,202,5897,187,187.0,Natatorium (LaSalle / Rolland),45.444547,-73.575091,29.193069306930692
66,201,4024,188,188.0,Bibliothèque de Verdun (Brown / Bannantyne),45.448262,-73.577856,20.019900497512438
67,202,7280,189,189.0,Beatty / de Verdun,45.45073,-73.572575,36.039603960396036
68,202,7924,190,190.0,Métro Monk (Allard / Beaulieu),45.450851,-73.594027,39.227722772277225
69,201,4344,191,191.0,Argyle / Bannantyne,45.453319,-73.576775,21.611940298507463
70,202,7526,192,192.0,Argyle / de Verdun,45.453016,-73.571915,37.257425742574256
71,202,5789,193,193.0,Hamilton / Jolicoeur,45.456355,-73.597557,28.65841584158416
72,201,4969,194,194.0,5e avenue / Bannantyne,45.456365,-73.57614,24.72139303482587
73,202,6711,196,196.0,4e avenue / de Verdun,45.456885,-73.572607,33.222772277227726
74,201,5106,197,197.0,Dubois / Eadie,45.457597,-73.590529,25.402985074626866
75,106,5422,198,198.0,2e avenue / Wellington,45.457893,-73.567528,51.15094339622642
76,202,14123,199,199.0,Métro Verdun (Willibrord / de Verdun),45.459488,-73.572092,69.91584158415841
77,105,5420,200,200.0,Gordon / Wellington,45.461078,-73.567307,51.61904761904762
78,202,8506,201,201.0,Parc St-Paul (Le Caron / Marc-Sauvalle),45.461685,-73.584039,42.10891089108911
79,194,8064,202,202.0,St-Patrick / Briand,45.463397,-73.596436,41.56701030927835
80,202,7287,203,203.0,de l'Église / de Verdun,45.463001,-73.571569,36.07425742574257
81,202,7624,204,204.0,de l'Église / Bannantyne,45.463254,-73.575879,37.742574257425744
82,202,8568,205,205.0,Regina / de Verdun,45.467369,-73.570769,42.415841584158414
83,202,12860,206,206.0,Métro Lasalle (de Rushbrooke / Caisse),45.470696,-73.565422,63.663366336633665
84,66,11009,207,207.0,Métro Laurier (Rivard / Laurier),45.527616,-73.589115,166.8030303030303
85,202,16556,208,208.0,St-Hubert / Laurier,45.52931,-73.588657,81.96039603960396
86,202,8920,209,209.0,Hélène-Baillargeon / St-Denis,45.52974,-73.59527,44.15841584158416
87,202,19668,211,211.0,de Mentana / Laurier,45.53045,-73.587638,97.36633663366337
88,202,43613,214,214.0,Laurier / de Brébeuf,45.532514,-73.584811,215.90594059405942
89,202,10282,215,215.0,Garnier / St-Joseph,45.532978,-73.581222,50.9009900990099
90,202,19528,216,216.0,de Lanaudière / Laurier,45.533314,-73.583737,96.67326732673267
91,202,11422,217,217.0,Gerry-Boulet / St-Grégoire,45.533735,-73.589307,56.54455445544554
92,202,28513,218,218.0,Marquette / Laurier,45.53543,-73.5822,141.15346534653466
93,201,9587,221,221.0,Métro Crémazie (Crémazie / Lajeunesse),45.546408,-73.638428,47.69651741293532
94,202,4456,222,222.0,Clark / Fleury,45.547581,-73.665234,22.059405940594058
95,202,5787,223,223.0,Émile-Journault / de Chateaubriand,45.549833,-73.640633,28.64851485148515
96,201,6132,224,224.0,Basile-Routhier / Chabanel,45.549868,-73.647657,30.507462686567163
97,183,9968,225,225.0,Métro Sauvé (Berri / Sauvé),45.550692,-73.656367,54.46994535519126
98,201,6428,226,226.0,Jacques-Casault / Christophe-Colomb,45.552123,-73.630103,31.980099502487562
99,60,1691,227,227.0,Complexe sportif Claude-Robillard,45.553262,-73.638615,28.183333333333334
100,200,6481,229,229.0,Métro Henri-Bourassa (Henri-Bourassa / Millen),45.556751,-73.667162,32.405
101,202,4224,230,230.0,Chambord / Fleury,45.559828,-73.658325,20.91089108910891
102,202,2471,231,231.0,Hamel / Sauvé,45.560762,-73.650561,12.232673267326733
103,202,3777,232,232.0,Francis / Fleury,45.563872,-73.655568,18.698019801980198
104,202,3272,233,233.0,Marquette / Fleury,45.567352,-73.653787,16.198019801980198
105,202,16665,234,234.0,de l'Hôtel-de-Ville / Sherbrooke,45.514565,-73.568407,82.5
106,202,34128,235,235.0,Square St-Louis (du Square St-Louis / Laval),45.516091,-73.570129,168.95049504950495
107,202,34073,236,236.0,Parc Jeanne-Mance (du Mont-Royal / du Parc),45.517,-73.589,168.67821782178217
108,202,25211,237,237.0,de l'Esplanade / du Mont-Royal,45.518253,-73.588338,124.8069306930693
109,202,19357,238,238.0,Villeneuve / du Parc,45.51829,-73.59235,95.82673267326733
110,202,30972,239,239.0,Roy / St-Denis,45.51908,-73.5727,153.32673267326732
111,202,35958,240,240.0,Berri / Cherrier,45.519088,-73.569509,178.009900990099
112,202,24154,241,241.0,Laval / Duluth,45.519216,-73.57718,119.57425742574257
113,202,53016,242,242.0,du Mont-Royal / Clark,45.51941,-73.58685,262.45544554455444
114,202,20668,243,243.0,Laval / Rachel,45.520179,-73.579424,102.31683168316832
115,202,14225,244,244.0,Villeneuve / St-Urbain,45.520188,-73.590559,70.42079207920793
116,202,21874,245,245.0,St-André / Cherrier,45.520524,-73.567697,108.2871287128713
117,202,21353,247,247.0,Roy / St-André,45.521564,-73.570367,105.70792079207921
118,202,15961,248,248.0,de Bullion / du Mont-Royal,45.521751,-73.585268,79.01485148514851
119,202,26108,249,249.0,Rivard / Rachel,45.522278,-73.577591,129.24752475247524
120,202,21226,250,250.0,Laval / du Mont-Royal,45.522365,-73.584146,105.07920792079207
121,202,24245,251,251.0,St-Hubert / Duluth,45.522426,-73.574184,120.02475247524752
122,202,17076,252,252.0,Berri / Rachel,45.522719,-73.577204,84.53465346534654
123,202,15812,253,253.0,Beaudry / Sherbrooke,45.523035,-73.565395,78.27722772277228
124,202,18170,254,254.0,du Parc-La Fontaine / Roy,45.522866,-73.568377,89.95049504950495
125,174,13649,255,255.0,Villeneuve / de l'Hôtel-de-Ville,45.523544,-73.587332,78.44252873563218
126,202,80999,256,256.0,Métro Mont-Royal (Rivard / du Mont-Royal),45.524673,-73.58255,400.98514851485146
127,202,14653,257,257.0,Marie-Anne / St-Hubert,45.524683,-73.578897,72.53960396039604
128,202,16990,258,258.0,du Parc-La Fontaine / Duluth,45.524518,-73.571977,84.10891089108911
129,202,19505,259,259.0,Calixa-Lavallée / Sherbrooke,45.52479,-73.56545,96.55940594059406
131,202,31922,261,261.0,Resther / du Mont-Royal,45.525628,-73.581775,158.02970297029702
132,202,15347,262,262.0,de Mentana / Marie-Anne,45.526027,-73.577859,75.97524752475248
133,202,14363,263,263.0,Métro Laurier (Berri / St-Joseph),45.527231,-73.586726,71.10396039603961
134,202,15112,264,264.0,Pontiac / Gilford,45.527009,-73.585766,74.81188118811882
135,196,27126,265,265.0,Émile-Duployé / Sherbrooke,45.527201,-73.564729,138.39795918367346
136,153,12081,266,266.0,Marie-Anne / de la Roche,45.527758,-73.576185,78.96078431372548
137,153,10845,267,267.0,Gilford / de Brébeuf,45.530816,-73.581626,70.88235294117646
138,202,10322,268,268.0,Gilford / de Lanaudière,45.532008,-73.580444,51.0990099009901
139,27,1851,271,271.0,Sanguinet / Ontario,45.514767,-73.565491,68.55555555555556
140,202,25698,272,272.0,Ste-Catherine / Labelle,45.515065,-73.55923,127.21782178217822
141,202,31131,273,273.0,St-André / Ste-Catherine,45.516427,-73.558112,154.1138613861386
142,202,20097,274,274.0,Gare d'autocars de Montréal (Berri / Ontario),45.516897,-73.563949,99.49009900990099
143,202,6622,277,277.0,St-André / Robin,45.518128,-73.561851,32.78217821782178
144,202,11906,278,278.0,St-André / Ontario,45.51889,-73.56353,58.94059405940594
145,50,4387,279,279.0,Montcalm / de Maisonneuve,45.519139,-73.557866,87.74
146,189,6903,280,280.0,Plessis / René-Lévesque,45.519373,-73.551958,36.523809523809526
147,202,10049,281,281.0,Wolfe / Robin,45.519581,-73.560116,49.74752475247525
148,106,4228,284,284.0,Papineau / René-Lévesque,45.52114,-73.54926,39.886792452830186
149,202,12283,285,285.0,Alexandre-DeSève / Ste-Catherine,45.52123,-73.553861,60.806930693069305
150,202,9593,286,286.0,Logan / de Champlain,45.523194,-73.555843,47.49009900990099
151,202,13510,288,288.0,Plessis / Ontario,45.523492,-73.56073,66.88118811881188
152,202,36172,289,289.0,Métro Papineau (Cartier / Ste-Catherine),45.52353,-73.55199,179.06930693069307
153,42,1412,291,291.0,Parthenais / Ste-Catherine,45.526006,-73.548864,33.61904761904762
154,202,8818,292,292.0,Jean Langlois / Fullum,45.5265,-73.545753,43.65346534653465
155,202,23948,293,293.0,Dorion / Ontario,45.526991,-73.558212,118.55445544554455
156,202,9567,294,294.0,Logan / Fullum,45.528366,-73.551171,47.36138613861386
157,202,9260,295,295.0,Poupart / Ste-Catherine,45.529002,-73.546199,45.84158415841584
158,202,13669,296,296.0,Larivière / de Lorimier,45.529134,-73.559234,67.66831683168317
159,115,9321,297,297.0,de Bordeaux / Sherbrooke,45.529971,-73.563053,81.05217391304348
160,202,7263,298,298.0,Logan / d'Iberville,45.53057,-73.54913,35.95544554455446
161,202,7865,299,299.0,Poupart / Ontario,45.531939,-73.553439,38.93564356435643
162,202,15322,302,302.0,Métro Frontenac (Ontario / du Havre),45.533706,-73.552179,75.85148514851485
163,202,7607,303,303.0,Hochelaga / Chapleau,45.534453,-73.559652,37.65841584158416
164,202,9500,304,304.0,du Havre / de Rouen,45.534563,-73.554787,47.02970297029703
165,200,5315,305,305.0,Hogan / Ontario,45.535295,-73.55116,26.575
166,202,7271,306,306.0,Sherbrooke / Frontenac,45.5367,-73.56081,35.995049504950494
167,201,8129,307,307.0,Wurtele / de Rouen,45.537628,-73.553394,40.44278606965174
168,202,36755,309,309.0,University / Milton,45.506511,-73.576669,181.95544554455446
169,202,21592,310,310.0,University / Prince-Arthur,45.507402,-73.578444,106.89108910891089
170,202,28261,311,311.0,Milton / Durocher,45.508141,-73.57493,139.90594059405942
171,202,24041,312,312.0,Aylmer / Prince-Arthur,45.508567,-73.577698,119.01485148514851
172,202,30553,313,313.0,Milton / du Parc,45.509361,-73.573864,151.25247524752476
173,189,20281,314,314.0,Hutchison / Prince-Arthur,45.509759,-73.576107,107.3068783068783
174,202,29089,315,315.0,Ste-Famille / Sherbrooke,45.510072,-73.570752,144.0049504950495
175,202,43514,316,316.0,Prince-Arthur / du Parc,45.51059,-73.57547,215.41584158415841
176,202,25268,317,317.0,Métro St-Laurent (de Maisonneuve / St-Laurent),45.51066,-73.56497,125.08910891089108
177,202,22524,318,318.0,Hutchison / des Pins,45.51069,-73.57805,111.5049504950495
178,202,13730,321,321.0,de l'Hôtel-de-Ville / Ste-Catherine,45.51166,-73.562136,67.97029702970298
179,202,35582,322,322.0,Milton / Clark,45.512541,-73.570677,176.14851485148515
180,197,16408,323,323.0,Prince-Arthur / St-Urbain,45.512587,-73.573739,83.28934010152284
181,153,9692,324,324.0,Sanguinet / Ste-Catherine,45.512797,-73.561463,63.34640522875817
182,202,7755,325,325.0,Ste-Famille / des Pins,45.512832,-73.576888,38.39108910891089
183,202,38931,326,326.0,Clark / Prince-Arthur,45.513303,-73.572961,192.72772277227722
184,202,14505,327,327.0,Sanguinet / de Maisonneuve,45.513405,-73.562594,71.8069306930693
185,202,22980,328,328.0,Guilbault / Clark,45.514108,-73.57523,113.76237623762377
186,197,16867,329,329.0,Metcalfe / St-Catherine,45.500832,-73.572459,85.61928934010152
187,155,34516,330,330.0,Parc Jeanne Mance (monument sir George-Etienne Cartier),45.51484,-73.584779,222.68387096774194
188,202,25480,331,331.0,Duluth / de l'Esplanade,45.515092,-73.581142,126.13861386138613
189,125,20124,332,332.0,BAnQ (Berri / de Maisonneuve),45.515299,-73.561273,160.992
190,202,14870,333,333.0,Parc de Bullion (de Bullion / Prince-Arthur),45.515604,-73.572135,73.61386138613861
191,202,34615,334,334.0,Roy / St-Laurent,45.515616,-73.575808,171.36138613861385
192,202,37532,336,336.0,Duluth / St-Laurent,45.516876,-73.57946,185.8019801980198
193,202,12656,337,337.0,de l'Hôtel-de-Ville / Roy,45.517401,-73.574605,62.65346534653465
194,202,34072,338,338.0,Clark / Rachel,45.517354,-73.582129,168.67326732673268
195,202,36822,339,339.0,St-Dominique / Rachel,45.518593,-73.581566,182.2871287128713
196,202,23784,340,340.0,Vallières / St-Laurent,45.518967,-73.583616,117.74257425742574
197,202,8711,341,341.0,U. Concordia - Campus Loyola (Sherbrooke / West Broadway),45.457509,-73.639485,43.12376237623762
198,202,4988,342,342.0,Park Row O / Sherbrooke,45.460729,-73.634073,24.693069306930692
199,202,7861,343,343.0,Benny / Sherbrooke,45.464877,-73.626597,38.915841584158414
200,202,6772,344,344.0,Grand Boulevard / Sherbrooke,45.466569,-73.623295,33.524752475247524
201,202,6210,346,346.0,de la Côte St-Antoine / Royal,45.468927,-73.61987,30.742574257425744
202,202,5993,347,347.0,de Melrose / Sherbrooke,45.46982,-73.616961,29.668316831683168
203,201,4480,348,348.0,de Hampton / de Monkland,45.471179,-73.627002,22.28855721393035
204,194,8876,349,349.0,Marcil / Sherbrooke,45.471743,-73.613924,45.75257731958763
205,202,6657,350,350.0,Harvard / de Monkland,45.474565,-73.624036,32.95544554455446
206,202,7043,351,351.0,de Monkland / Girouard,45.477107,-73.621438,34.866336633663366
207,147,2742,352,352.0,Notre-Dame-de-Grâce / Décarie,45.477353,-73.615372,18.653061224489797
208,202,11190,354,354.0,Métro Snowdon (de Westbury / Queen-Mary),45.485385,-73.628142,55.396039603960396
209,169,3796,355,355.0,Lionel-Groulx / George-Vanier,45.486219,-73.573747,22.46153846153846
210,202,6590,356,356.0,Canning / Notre-Dame,45.486319,-73.570233,32.62376237623762
211,198,14241,357,357.0,des Seigneurs / Notre-Dame,45.487723,-73.569083,71.92424242424242
212,202,9615,358,358.0,Métro Georges-Vanier (St-Antoine / Canning),45.4891,-73.57656,47.5990099009901
213,202,47477,359,359.0,Métro Atwater (Atwater / Ste-Catherine),45.489476,-73.584566,235.03465346534654
214,202,7142,360,360.0,Atwater / Sherbrooke,45.491226,-73.58763,35.35643564356435
215,202,5175,361,361.0,Beaucourt / de la Côte-Ste-Catherine,45.491513,-73.633649,25.61881188118812
216,202,24994,362,362.0,Chomedey / de Maisonneuve,45.4918,-73.584006,123.73267326732673
217,162,16235,363,363.0,Ste-Catherine / St-Marc,45.492897,-73.580294,100.21604938271605
218,202,7933,364,364.0,Lincoln / du Fort,45.493034,-73.583836,39.272277227722775
219,153,19964,365,365.0,St-Mathieu / Ste-Catherine,45.49368,-73.579146,130.48366013071896
220,202,6666,366,366.0,St-Marc / Sherbrooke,45.494514,-73.583368,33.0
221,202,18228,368,368.0,Jean-Brillant / de la Côte-des-Neiges,45.495415,-73.622341,90.23762376237623
222,141,5146,369,369.0,Hôpital général juif (de la Côte Ste-Catherine / Légaré),45.496302,-73.629822,36.49645390070922
223,202,35349,370,370.0,Mackay / de Maisonneuve,45.49683,-73.57913,174.9950495049505
224,70,4269,371,371.0,Swail / Decelles,45.497055,-73.618652,60.98571428571429
225,202,14515,373,373.0,de Kent / de la Côte-des-Neiges,45.501449,-73.633051,71.85643564356435
226,202,8228,374,374.0,de Soissons / de Darlington,45.506899,-73.623526,40.73267326732673
227,202,9049,375,375.0,Parc Kent (de Kent / Hudson),45.505721,-73.629459,44.7970297029703
228,202,16913,376,376.0,Édouard-Montpetit / de Stirling,45.50723,-73.615085,83.72772277227723
229,202,11472,377,377.0,Wilderton  / Van Horne,45.510142,-73.624752,56.79207920792079
230,202,18094,378,378.0,Tupper / du Fort,45.49123,-73.580782,89.57425742574257
231,202,17102,379,379.0,St-Mathieu / Sherbrooke,45.495789,-73.582596,84.66336633663366
232,187,29855,381,381.0,Crescent / de Maisonneuve,45.498112,-73.577615,159.6524064171123
233,202,17435,382,382.0,Drummond / Ste-Catherine,45.498639,-73.574227,86.31188118811882
234,193,8520,383,383.0,de la Cathédrale / René-Lévesque,45.499191,-73.569421,44.145077720207254
235,194,13913,384,384.0,Cypress / Peel,45.499325,-73.571768,71.71649484536083
236,202,14737,385,385.0,Drummond / de Maisonneuve,45.49947,-73.57591,72.95544554455445
237,25,1320,386,386.0,de la Montagne / Sherbrooke,45.499745,-73.579034,52.8
238,202,7783,387,387.0,Notre-Dame / Gauvin,45.500105,-73.560199,38.52970297029703
239,202,39552,388,388.0,Métro Peel (de Maisonneuve / Stanley),45.50038,-73.57507,195.8019801980198
240,202,8130,389,389.0,de la Gauchetière / Robert-Bourassa,45.500606,-73.565448,40.24752475247525
241,20,741,392,392.0,Stanley / Sherbrooke,45.501041,-73.577178,37.05
242,202,12213,393,393.0,Metcalfe / de Maisonneuve,45.501715,-73.57413,60.460396039603964
243,202,13373,394,394.0,St-Nicolas / Place d'Youville,45.501967,-73.555153,66.20297029702971
244,202,20074,395,395.0,Square Victoria (Viger / du Square-Victoria),45.50206,-73.56295,99.37623762376238
245,202,9457,396,396.0,Union / René-Lévesque,45.50235,-73.566583,46.81683168316832
246,202,12927,397,397.0,St-Jacques / St-Pierre,45.502786,-73.559134,63.995049504950494
247,202,40231,398,398.0,McTavish / Sherbrooke,45.502813,-73.576024,199.16336633663366
248,198,14123,400,400.0,du President-Kennedy / Union,45.505011,-73.572028,71.32828282828282
249,182,7078,401,401.0,St-Antoine / St-François-Xavier,45.504591,-73.559188,38.89010989010989
250,202,8452,403,403.0,Viger / Chenneville,45.505312,-73.560891,41.84158415841584
251,202,14106,404,404.0,Métro Place-d'Armes (Viger / St-Urbain),45.50623,-73.55976,69.83168316831683
252,202,10070,405,405.0,City Councillors / du President-Kennedy,45.506251,-73.571391,49.851485148514854
253,157,8450,406,406.0,St-Jacques / St-Laurent,45.506421,-73.556466,53.82165605095541
254,202,13923,407,407.0,St-Urbain / de la Gauchetière,45.507078,-73.561395,68.92574257425743
255,201,8304,408,408.0,Notre-Dame / St-Gabriel,45.507144,-73.555119,41.3134328358209
256,202,8308,409,409.0,du Champ-de-Mars / Gosford,45.509655,-73.554009,41.12871287128713
257,202,14979,410,410.0,Métro Champ-de-Mars (Viger / Sanguinet),45.510351,-73.556508,74.15346534653466
258,202,9119,411,411.0,St-André / St-Antoine,45.514114,-73.552645,45.14356435643565
259,202,11401,412,412.0,Ottawa / William,45.489727,-73.564063,56.44059405940594
260,202,12874,413,413.0,Joseph-Manseau / René-Lévesque,45.491687,-73.576767,63.73267326732673
261,202,21468,414,414.0,Notre-Dame / de la Montagne,45.493029,-73.564818,106.27722772277228
262,196,6914,415,415.0,Lucien L'Allier / St-Jacques,45.493569,-73.568576,35.275510204081634
263,202,8047,418,418.0,Métro Lucien-L'Allier  (Lucien l'Allier / Argyle),45.494872,-73.571124,39.836633663366335
264,200,7922,419,419.0,Duke / Brennan,45.495581,-73.553711,39.61
265,161,13213,420,420.0,Bishop / Ste-Catherine,45.496583,-73.576502,82.06832298136646
266,202,32541,421,421.0,de la Commune / King,45.497515,-73.552571,161.09405940594058
267,202,13883,422,422.0,William / St-Henri,45.498919,-73.557254,68.72772277227723
268,171,7465,423,423.0,Queen / Wellington,45.497605,-73.55535,43.654970760233915
269,202,16203,425,425.0,Labadie / du Parc,45.519895,-73.596827,80.2128712871287
270,202,25859,427,427.0,de l'Esplanade / Fairmount,45.521496,-73.596827,128.0148514851485
271,202,25378,428,428.0,Jeanne-Mance / St-Viateur,45.523027,-73.60184,125.63366336633663
272,202,18112,429,429.0,Waverly / St-Viateur,45.523856,-73.600127,89.66336633663366
273,202,14537,430,430.0,de Bullion / St-Joseph,45.524037,-73.590143,71.96534653465346
274,202,26043,431,431.0,Bernard / Jeanne-Mance,45.524287,-73.604973,128.9257425742574
275,200,21199,432,432.0,Maguire / St-Laurent,45.524628,-73.595811,105.995
276,112,5797,433,433.0,Hutchison / Van Horne,45.524942,-73.610606,51.75892857142857
277,202,9946,434,434.0,de Gaspé / Fairmount,45.525648,-73.592928,49.23762376237624
278,202,24738,436,436.0,Drolet / Laurier,45.526252,-73.589758,122.46534653465346
279,202,14243,437,437.0,St-Dominique / St-Viateur,45.526557,-73.598276,70.50990099009901
280,202,9832,438,438.0,Maguire / Henri-Julien,45.527041,-73.593471,48.67326732673267
281,202,6249,439,439.0,Waverly / Van Horne,45.527363,-73.607723,30.935643564356436
282,202,7356,440,440.0,Casgrain / St-Viateur,45.527513,-73.598791,36.415841584158414
283,202,10179,441,441.0,de Gaspé / St-Viateur,45.527748,-73.597439,50.39108910891089
284,200,8653,442,442.0,Henri-Julien / du Carmel,45.527839,-73.594821,43.265
285,202,9708,443,443.0,St-Dominique / Bernard,45.527933,-73.601223,48.05940594059406
286,201,4081,444,444.0,Berlioz / de l'Île des Soeurs,45.459986,-73.543956,20.303482587064675
287,202,8302,445,445.0,Place du Commerce,45.46714,-73.54259,41.0990099009901
288,202,21752,447,447.0,Léa-Roback / Sir-Georges-Etienne-Cartier,45.471669,-73.582644,107.68316831683168
289,201,4725,448,448.0,Jacques-Le Ber / de la Pointe Nord,45.472503,-73.539285,23.507462686567163
290,202,15759,449,449.0,Ste-Émilie / Sir-Georges-Etienne-Cartier,45.472668,-73.58539,78.01485148514851
291,202,9326,450,450.0,Ryde / Charlevoix,45.475743,-73.564601,46.16831683168317
292,202,16105,451,451.0,Métro Place St-Henri (St-Ferdinand / St-Jacques),45.477249,-73.587238,79.72772277227723
293,202,8706,452,452.0,Fortune / Wellington,45.477923,-73.559038,43.0990099009901
294,202,16483,453,453.0,Métro Charlevoix (Centre / Charlevoix),45.478228,-73.569651,81.5990099009901
295,202,9950,455,455.0,Bourgeoys / Favard,45.47993,-73.555921,49.257425742574256
296,201,9376,456,456.0,Ropery / Augustin-Cantin,45.480914,-73.56846,46.646766169154226
297,201,14710,459,459.0,Duvernay / Charlevoix,45.482098,-73.574876,73.18407960199005
298,202,7188,461,461.0,Shearer / Centre,45.483006,-73.562187,35.584158415841586
299,202,6287,462,462.0,Charlevoix / Lionel-Groulx,45.483928,-73.577312,31.123762376237625
300,202,11187,463,463.0,Augustin-Cantin / Shearer,45.484018,-73.563437,55.381188118811885
301,154,10651,464,464.0,Richardson / de Montmorency,45.48498,-73.560333,69.16233766233766
302,202,6615,465,465.0,Georges-Vanier / Notre-Dame,45.485048,-73.571963,32.74752475247525
303,201,5611,466,466.0,Quesnel / Vinet,45.485889,-73.577514,27.915422885572138
304,172,12471,467,467.0,Guy / Notre-Dame,45.490042,-73.567111,72.50581395348837
305,202,22531,468,468.0,Young / Wellington,45.492825,-73.557978,111.53960396039604
306,202,37680,469,469.0,de la Commune / St-Sulpice,45.504242,-73.55347,186.53465346534654
307,202,43377,470,470.0,de la Commune / Place Jacques-Cartier,45.50761,-73.551836,214.73762376237624
308,202,29110,471,471.0,de la Commune / Berri,45.51086,-73.54983,144.1089108910891
309,202,25960,472,472.0,Rachel / de Brébeuf,45.52689,-73.57264,128.5148514851485
310,202,6318,474,474.0,Métro Acadie (de l'Acadie / Beaumont),45.523575,-73.623443,31.277227722772277
311,200,2397,477,477.0,Métro de la Savane (de Sorel / Bougainville),45.500451,-73.661428,11.985
312,202,7413,478,478.0,Dollard / Bernard,45.516783,-73.611423,36.698019801980195
313,202,11477,479,479.0,Casgrain / Maguire,45.525933,-73.595253,56.81683168316832
314,202,7896,480,480.0,Jeanne-Mance / Beaubien,45.52765,-73.6123,39.08910891089109
315,196,1313,481,481.0,Alfred Laliberté / de Poutrincourt,45.53308,-73.694597,6.698979591836735
316,202,7302,482,482.0,Chabanel / du Parc,45.538308,-73.654884,36.148514851485146
317,201,3484,483,483.0,Gare Bois-de-Boulogne,45.539726,-73.677165,17.333333333333332
318,201,2068,484,484.0,Laforest / Dudemaine,45.539806,-73.687266,10.288557213930348
319,202,4232,485,485.0,Chabanel / de l'Esplanade,45.540686,-73.653376,20.95049504950495
320,198,3650,486,486.0,Papineau / Émile-Journault,45.559884,-73.633568,18.434343434343436
321,201,4860,487,487.0,16e avenue / Jean-Talon,45.56244,-73.595333,24.17910447761194
322,201,6797,488,488.0,Rosemont / Viau,45.56833,-73.566663,33.81592039800995
323,201,3663,489,489.0,de St-Firmin / Fleury,45.570657,-73.651842,18.223880597014926
324,201,3297,490,490.0,41e avenue / Rosemont,45.57179,-73.564315,16.402985074626866
325,201,1901,492,492.0,de Lisieux / Jean-Talon,45.579349,-73.581681,9.457711442786069
326,183,644,496,496.0,des Récollets / Martial,45.590892,-73.640617,3.519125683060109
327,202,2271,499,499.0,Liébert / Hochelaga,45.595875,-73.523528,11.242574257425742
328,200,3231,501,501.0,Bélanger / des Galeries d'Anjou,45.597221,-73.56279,16.155
329,202,9962,502,502.0,William / Robert-Bourassa,45.497165,-73.55933,49.31683168316832
330,199,3481,504,504.0,Gagne / LaSalle,45.422451,-73.601194,17.492462311557787
331,172,682,505,505.0,Parc Highlands (Highlands / LaSalle),45.426124,-73.657416,3.9651162790697674
332,200,3164,507,507.0,Newman / Senkus,45.444043,-73.613752,15.82
333,202,6082,508,508.0,LaSalle / Godin,45.446934,-73.572199,30.10891089108911
334,202,4214,509,509.0,Elgar / de l'Île-des-Sœurs,45.456823,-73.546804,20.861386138613863
335,105,5768,510,510.0,Hickson / Wellington,45.464892,-73.566998,54.93333333333333
336,201,4859,511,511.0,Grand Boulevard / de Terrebonne,45.470544,-73.63168,24.17412935323383
337,202,11501,512,512.0,Turgeon / Notre-Dame,45.478888,-73.581989,56.93564356435643
338,202,5689,513,513.0,St-Jacques / des Seigneurs,45.489186,-73.5719,28.163366336633665
339,202,29607,514,514.0,des Bassins / du Séminaire,45.490452,-73.560172,146.56930693069307
340,165,5671,515,515.0,Parc Plage,45.502828,-73.527793,34.36969696969697
341,69,1011,516,516.0,Lusignan / St-Jacques,45.492222,-73.569348,14.652173913043478
342,194,1448,517,517.0,Bibliothèque du Boisé (Thimens / Todd),45.504635,-73.704432,7.463917525773196
343,72,445,519,519.0,Beaudet / Marcel-Laurin,45.506843,-73.681757,6.180555555555555
344,202,2467,520,520.0,Métro du Collège (Cartier / Décarie),45.508439,-73.672965,12.212871287128714
345,197,1914,521,521.0,Thimens / Alexis-Nihon,45.508978,-73.698564,9.715736040609137
346,87,1110,522,522.0,de l'Eglise / St-Germain,45.512559,-73.677011,12.758620689655173
347,188,764,523,523.0,Ste-Croix / Tassé,45.519492,-73.685104,4.0638297872340425
348,198,1974,524,524.0,O'Brien / Poirier,45.52246,-73.691564,9.969696969696969
349,199,5264,525,525.0,Casino de Montréal,45.506373,-73.524577,26.452261306532662
350,197,5148,526,526.0,Quai de la navette fluviale,45.513741,-73.538382,26.131979695431472
351,202,4689,527,527.0,Métro Longueuil - Université de Sherbrooke,45.523319,-73.520127,23.212871287128714
352,182,856,528,528.0,Place Longueuil,45.52841,-73.517166,4.7032967032967035
353,185,729,529,529.0,St-Charles / Montarville,45.533682,-73.515261,3.9405405405405407
354,197,1446,530,530.0,Collège Édouard-Montpetit (de Gentilly / de Normandie),45.537226,-73.495067,7.340101522842639
355,193,970,531,531.0,St-Charles / Grant,45.539824,-73.508752,5.025906735751295
356,202,25933,532,532.0,Marché Atwater,45.480208,-73.577599,128.38118811881188
357,202,9671,533,533.0,Atwater / Greene,45.480495,-73.577827,47.87623762376238
358,200,6536,535,535.0,Leman / de Chateaubriand,45.547218,-73.631103,32.68
359,202,22928,537,537.0,Villeneuve / St-Laurent,45.521342,-73.589419,113.5049504950495
360,202,12328,538,538.0,Dollard / Van Horne,45.519153,-73.616469,61.02970297029703
362,201,3644,542,542.0,Parc Joyce (Rockland / Lajoie),45.515617,-73.614991,18.129353233830845
363,201,4115,543,543.0,Davaar / de la Côte-Ste-Catherine,45.514379,-73.610871,20.4726368159204
364,202,20009,544,544.0,Bloomfield / Bernard,45.520688,-73.608428,99.05445544554455
365,202,10362,546,546.0,Bloomfield / Van Horne,45.522586,-73.612658,51.2970297029703
366,202,14144,547,547.0,Métro Édouard-Montpetit (du Mont-Royal / Vincent-d'Indy),45.510086,-73.611429,70.01980198019803
367,202,8000,548,548.0,Waverly / St-Zotique,45.530505,-73.614708,39.603960396039604
368,202,8961,549,549.0,du Mont-Royal / Augustin-Frigon,45.543763,-73.56772,44.36138613861386
369,202,14107,550,550.0,Drolet / Beaubien,45.533348,-73.605834,69.83663366336634
370,202,29046,551,551.0,Métro Beaubien (de Chateaubriand / Beaubien),45.53536,-73.603635,143.79207920792078
371,202,13588,552,552.0,de Bellechasse / de St-Vallier,45.53341,-73.601124,67.26732673267327
372,202,25148,553,553.0,Boyer / Beaubien,45.537041,-73.602026,124.4950495049505
373,202,6146,555,555.0,Centre ÉPIC (St-Zotique / 40e avenue),45.574147,-73.574621,30.425742574257427
374,202,11583,556,556.0,Chabot / Beaubien,45.544376,-73.595645,57.34158415841584
375,202,10116,557,557.0,Louis-Hébert / de Bellechasse,45.546661,-73.588684,50.07920792079208
376,202,11487,558,558.0,Molson / Beaubien,45.549686,-73.591155,56.866336633663366
377,202,10655,559,559.0,Beaubien / 8e avenue,45.553457,-73.587842,52.74752475247525
378,132,4920,560,560.0,16e avenue / Beaubien,45.558281,-73.583159,37.27272727272727
379,202,5478,561,561.0,29e avenue / St-Zotique,45.567766,-73.579688,27.11881188118812
380,202,11781,562,562.0,de la Roche /  de Bellechasse,45.537159,-73.597476,58.32178217821782
381,202,10466,563,563.0,Chabot / de Bellechasse,45.54257,-73.592144,51.81188118811881
382,202,13550,564,564.0,Louis-Hébert / Beaubien,45.548186,-73.59201,67.07920792079207
383,202,7853,565,565.0,Alexandra / Jean-Talon,45.532331,-73.620187,38.87623762376238
384,202,19433,566,566.0,Marché Jean-Talon (Henri-Julien / Jean-Talon),45.536785,-73.614888,96.20297029702971
385,202,20179,567,567.0,Bélanger / St-Denis,45.53696,-73.61199,99.89603960396039
386,202,12012,568,568.0,de la Roche / Bélanger,45.54167,-73.607604,59.46534653465346
387,202,15014,569,569.0,Boyer / Bélanger,45.54006,-73.60897,74.32673267326733
388,202,10882,570,570.0,de Lanaudière / Bélanger,45.543651,-73.60565,53.87128712871287
389,202,7819,571,571.0,Cartier / Bélanger,45.546797,-73.602664,38.70792079207921
390,201,5369,572,572.0,des Érables / Bélanger,45.549121,-73.600874,26.71144278606965
391,202,18886,573,573.0,Parc Père-Marquette (Chambord / Rosemont),45.537088,-73.593219,93.4950495049505
392,202,13113,574,574.0,Boyer / Jean-Talon,45.541586,-73.612481,64.91584158415841
393,202,9427,575,575.0,Louis-Hémon / Rosemont,45.544599,-73.588223,46.66831683168317
394,202,9356,576,576.0,1ère avenue / Rosemont,45.5478,-73.584867,46.31683168316832
395,202,6865,577,577.0,5e avenue / Rosemont,45.5499,-73.583084,33.98514851485149
396,202,9624,578,578.0,Marquette / des Carrières,45.538799,-73.5887,47.64356435643565
397,202,10698,580,580.0,Cartier / Dandurand,45.539236,-73.585946,52.960396039603964
398,194,4532,581,581.0,de Gaspé / Marmier,45.529686,-73.601728,23.36082474226804
399,202,10118,582,582.0,Fabre / St-Zotique,45.543452,-73.60101,50.08910891089109
400,202,8166,583,583.0,de Bordeaux / St-Zotique,45.546539,-73.598665,40.42574257425743
401,202,27667,584,584.0,Marmier / St-Denis,45.530871,-73.598345,136.96534653465346
402,202,5676,585,585.0,Louis-Hébert / St-Zotique,45.55001,-73.59576,28.099009900990097
403,202,8240,586,586.0,Fabre / Beaubien,45.54206,-73.597873,40.79207920792079
404,188,10875,587,587.0,St-Zotique / Clark,45.531401,-73.612674,57.84574468085106
405,202,8802,588,588.0,Parc du Pélican (2e avenue / St-Joseph),45.544513,-73.571564,43.57425742574257
406,202,23268,589,589.0,St-Dominique / St-Zotique,45.532265,-73.611063,115.18811881188118
407,198,7912,590,590.0,de Gaspé / Dante,45.534298,-73.612172,39.95959595959596
408,151,7757,591,591.0,Mozart / St-Laurent,45.53318,-73.61544,51.370860927152314
409,202,19101,592,592.0,Boyer / St-Zotique,45.53848,-73.60556,94.55940594059406
410,202,9687,593,593.0,de St-Vallier / St-Zotique,45.536261,-73.607546,47.95544554455446
411,202,10407,594,594.0,Drolet / St-Zotique,45.534882,-73.609412,51.51980198019802
412,202,6351,597,597.0,12e avenue / St-Zotique,45.556867,-73.589307,31.440594059405942
413,202,5847,598,598.0,1ère  avenue / St-Zotique,45.551937,-73.593928,28.945544554455445
414,201,20621,600,600.0,Jardin Botanique (Pie-IX / Sherbrooke),45.554947,-73.555295,102.59203980099502
415,155,7141,601,601.0,18e avenue / Rosemont,45.557896,-73.576529,46.07096774193548
416,202,5950,602,602.0,Hôpital Maisonneuve-Rosemont (Rosemont / Chatelain),45.575707,-73.561562,29.455445544554454
417,201,5146,604,604.0,35e avenue / Beaubien,45.570081,-73.573047,25.601990049751244
418,202,8725,606,606.0,de Chambly / Rachel,45.549911,-73.558263,43.193069306930695
419,202,23136,607,607.0,10e avenue / Masson,45.550306,-73.573353,114.53465346534654
420,202,10758,608,608.0,d'Orléans / Masson,45.557192,-73.569847,53.257425742574256
421,202,12377,611,611.0,15e avenue / Masson,45.553898,-73.571387,61.272277227722775
422,190,6603,613,613.0,Parc J.-Arthur-Champagne (de Chambly / du Mont-Royal),45.551584,-73.561916,34.752631578947366
423,202,10198,614,614.0,Omer-Lavallée / du Midway,45.545776,-73.562175,50.48514851485149
424,202,8441,615,615.0,Bourbonnière / du Mont-Royal,45.553571,-73.560494,41.78712871287129
425,202,9028,616,616.0,Cartier / Rosemont,45.541247,-73.591044,44.693069306930695
426,202,11221,619,619.0,St-Urbain / Beaubien,45.52951,-73.61068,55.54950495049505
427,200,5432,620,620.0,Ernest-Gendreau / du Mont-Royal,45.549714,-73.563848,27.16
428,104,8106,622,622.0,Place Émilie-Gamelin,45.515901,-73.559948,77.9423076923077
429,104,8106,622,622.0,Place Émilie-Gamelin (St-Hubert / de Maisonneuve),45.515901,-73.559948,77.9423076923077
430,202,13622,623,623.0,de Maisonneuve / Mansfield (nord),45.502311,-73.5733635,67.43564356435644
431,199,12258,624,624.0,St-Jacques / McGill,45.501441,-73.560144,61.597989949748744
432,202,18493,625,625.0,St-Urbain / René-Lévesque,45.507838,-73.563136,91.54950495049505
433,202,17694,626,626.0,de Maisonneuve / Mansfield (sud),45.502145,-73.573427,87.5940594059406
434,202,11477,627,627.0,Durocher / Bernard,45.522225,-73.606687,56.81683168316832
435,188,4414,628,628.0,La Ronde,45.521565,-73.535332,23.47872340425532
436,194,15112,629,629.0,Aylmer / Sherbrooke,45.506587,-73.573299,77.89690721649484
437,200,12125,630,630.0,Querbes / Laurier,45.51754,-73.597832,60.625
438,202,5903,631,631.0,26e avenue / Beaubien,45.564944,-73.577639,29.222772277227723
439,193,4087,633,633.0,Jogues / Allard,45.45002,-73.600306,21.17616580310881
440,202,19280,634,634.0,Mackay / Ste-Catherine,45.495709,-73.576952,95.44554455445545
441,202,8360,635,635.0,19e avenue / St-Zotique,45.561594,-73.585643,41.386138613861384
442,202,16982,636,636.0,de Maisonneuve / Greene,45.486971,-73.589293,84.06930693069307
443,202,6900,637,637.0,Hillside / Ste-Catherine,45.482826,-73.590843,34.15841584158416
444,202,12181,638,638.0,Victoria / de Maisonneuve,45.477429,-73.600169,60.301980198019805
445,202,7876,639,639.0,Victoria Hall,45.481291,-73.60033,38.99009900990099
446,200,3466,641,641.0,2e avenue / Jean-Rivard,45.562509,-73.61656,17.33
447,202,11084,642,642.0,Henri-Julien / de Castelnau,45.537891,-73.618215,54.87128712871287
448,202,5386,645,645.0,Louis-Hébert / Bélanger,45.551585,-73.599165,26.663366336633665
449,202,20551,646,646.0,Gary-Carter / St-Laurent,45.5359,-73.622443,101.73762376237623
450,202,6699,647,647.0,St-Dominique / Gounod,45.538738,-73.628022,33.163366336633665
451,202,5133,648,648.0,Guizot / St-Laurent,45.539663,-73.634475,25.41089108910891
452,202,7677,650,650.0,Drolet / Gounod,45.540951,-73.626375,38.004950495049506
453,202,6500,651,651.0,de Gaspé / Jarry,45.54078,-73.630401,32.17821782178218
454,202,7137,652,652.0,Guizot / St-Denis,45.543424,-73.632462,35.33168316831683
455,202,7024,653,653.0,de Gaspé / de Liège,45.542485,-73.636342,34.772277227722775
456,202,8958,654,654.0,du Rosaire / St-Hubert,45.544819,-73.62151,44.34653465346535
457,201,6330,656,656.0,de Chateaubriand / Jarry,45.545955,-73.626992,31.492537313432837
458,202,5346,657,657.0,de la Roche / Everett,45.544867,-73.614841,26.465346534653467
459,202,7553,658,658.0,Marquette / Villeray,45.550684,-73.615293,37.39108910891089
460,202,11761,659,659.0,St-Dominique / Jean-Talon,45.535248,-73.617564,58.222772277227726
461,36,606,660,660.0,Louis-Hémon / Villeray,45.554961,-73.610737,16.833333333333332
462,202,7347,661,661.0,Métro St-Michel (Shaughnessy / St-Michel),45.559199,-73.599658,36.37128712871287
463,200,6156,663,663.0,d'Outremont / Ogilvy,45.52687,-73.626723,30.78
464,202,8773,664,664.0,de Normanville / Villeray,45.54717,-73.618041,43.43069306930693
465,202,12976,665,665.0,Lajeunesse / Villeray,45.542119,-73.622547,64.23762376237623
466,105,1945,666,666.0,Villeray / St-Michel,45.561059,-73.603967,18.523809523809526
467,202,7064,669,669.0,de Bordeaux / Jean-Talon,45.549755,-73.605566,34.97029702970297
468,202,6996,674,674.0,Drolet / Jarry,45.541955,-73.629942,34.633663366336634
469,194,6577,675,675.0,Clark / de Liège,45.539984,-73.638135,33.902061855670105
470,202,23468,676,676.0,Boyer / Rosemont,45.534136,-73.595478,116.17821782178218
471,202,20770,677,677.0,Bernard / St-Urbain,45.526267,-73.603191,102.82178217821782
472,70,541,678,678.0,CIUSSS (du Trianon / Pierre-de-Coubertin),45.587531,-73.531907,7.728571428571429
473,201,2997,680,680.0,Hôpital Santa Cabrini (St-Zotique / Jeanne-Jugan),45.579325,-73.570504,14.91044776119403
474,58,4446,681,681.0,St-Denis / René-Lévesque,45.512871,-73.558466,76.65517241379311
475,202,16471,684,684.0,Jeanne-Mance / René-Lévesque,45.506371,-73.564201,81.53960396039604
476,99,3435,686,686.0,Desjardins / Ontario,45.551192,-73.540873,34.696969696969695
477,200,9510,687,687.0,Metcalfe / du Square-Dorchester,45.500208,-73.571138,47.55
478,112,7668,688,688.0,Métro Viau (Pierre-de-Coubertin / Viau),45.561783,-73.546611,68.46428571428571
479,76,3831,689,689.0,de Mentana / Gilford,45.528724,-73.583859,50.4078947368421
480,196,6283,690,690.0,St-Maurice / Robert-Bourassa,45.498578,-73.560242,32.05612244897959
481,200,5140,691,691.0,Métro Honoré-Beaugrand (Sherbrooke / Honoré-Beaugrand),45.596797,-73.535179,25.7
482,201,4635,692,692.0,Paré / Mountain Sights,45.4981,-73.652942,23.059701492537314
483,202,4160,693,693.0,Métro Radisson (Sherbrooke / des Groseilliers),45.589175,-73.539656,20.594059405940595
484,202,4410,694,694.0,Graham / Brookfield,45.520222,-73.629856,21.831683168316832
485,202,7414,696,696.0,Hutchison / Beaubien,45.526058,-73.612969,36.7029702970297
486,193,749,699,699.0,St-Jean-Baptiste / René-Lévesque,45.641557,-73.500375,3.8808290155440415
487,166,604,701,701.0,du Tricentenaire / Prince-Albert,45.649546,-73.491916,3.63855421686747
488,202,7486,702,702.0,de Maisonneuve / Aylmer (est),45.505386,-73.570432,37.05940594059406
489,150,417,703,703.0,du Souvenir / Chomedey,45.551886,-73.74444,2.78
490,198,1664,704,704.0,Métro Montmorency,45.558109,-73.719598,8.404040404040405
491,188,770,705,705.0,Parc St-Claude (7e avenue / 8e rue),45.562668,-73.692362,4.095744680851064
492,196,1992,706,706.0,Métro Cartier,45.56003,-73.681336,10.16326530612245
493,202,20774,749,749.0,Atateken / du Square Amherst,45.5206338,-73.563906,102.84158415841584
494,202,29745,750,750.0,Métro Sherbrooke (de Rigaud / St-Denis),45.5179989,-73.5681841,147.25247524752476
495,159,5494,751,751.0,Bourget / St-Jacques,45.4808458,-73.5838616,34.55345911949686
496,202,12421,752,752.0,Métro Bonaventure (de la Gauchetière / de la Cathédrale),45.4983122,-73.567256,61.49009900990099
497,202,16919,753,753.0,Mansfield / Ste-Catherine,45.5013987,-73.5717863,83.75742574257426
498,202,26897,756,756.0,Notre-Dame / Jean-d'Estrées,45.4942598,-73.5638181,133.15346534653466
499,202,15754,757,757.0,de Gaspé / Beaubien,45.5319579,-73.607001,77.99009900990099
500,200,11851,759,759.0,Ann / Wellington,45.4945271,-73.5567525,59.255
501,202,18310,760,760.0,St-Dominique / de Bellechasse,45.5295036,-73.6048646,90.64356435643565
502,202,21729,761,761.0,St-Dominique / du Mont-Royal,45.5205595,-73.5858203,107.56930693069307
503,202,22763,762,762.0,St-Dominique / Napoléon,45.5166644,-73.5772204,112.68811881188118
504,202,14111,763,763.0,Métro Jean-Talon (Berri / Jean-Talon),45.5390004,-73.614251,69.85643564356435
505,202,39977,764,764.0,St-Dominique / Laurier,45.5236149,-73.5924574,197.90594059405942
506,202,11245,765,765.0,Faillon / St-Denis,45.5398641,-73.6203128,55.66831683168317
507,202,9724,767,767.0,de Gaspé / Villeray,45.5388872,-73.623907,48.13861386138614
508,83,2793,769,769.0,Grand Trunk / d'Hibernia,45.47968,-73.56385,33.65060240963855
509,118,4412,770,770.0,Rivier / Davidson,45.5461147,-73.5570931,37.389830508474574
510,202,15828,771,771.0,Métro Parc  (Hutchison / Ogilvy),45.5303513,-73.6243924,78.35643564356435
511,202,3884,774,774.0,Parc St-Henri (Laporte / Guay),45.4801338,-73.5859081,19.22772277227723
512,202,6107,775,775.0,St-Hubert / St-Joseph,45.5280879,-73.5858625,30.23267326732673
513,201,5526,776,776.0,de la Côte St-Antoine / Argyle,45.486241,-73.5957277,27.492537313432837
514,201,6079,778,778.0,Métro Jolicoeur (de Sève / Drake),45.4560855,-73.5819371,30.243781094527364
515,202,13700,779,779.0,de Bleury / de Maisonneuve,45.5070965,-73.5684416,67.82178217821782
516,199,2215,780,780.0,LaSalle / 80e avenue,45.4157687,-73.6379242,11.130653266331658
517,202,5127,781,781.0,Kirkfield / de Chambois,45.5129332,-73.6338902,25.38118811881188
518,202,11467,784,784.0,de la Côte St-Paul / St-Ambroise,45.4676657,-73.5939178,56.76732673267327
519,201,2250,785,785.0,des Jockeys / Décarie,45.4940443,-73.6544949,11.194029850746269
520,201,3103,786,786.0,LaSalle / 37e avenue,45.4163102,-73.6129159,15.437810945273633
521,201,7096,788,788.0,Bennett / Pierre-de-Coubertin,45.5581597,-73.5484001,35.30348258706468
522,202,10867,790,790.0,Métro de Castelnau (de Castelnau / St-Laurent),45.5357088,-73.6196235,53.7970297029703
523,202,4400,834,834.0,Graham / Wicksteed,45.5169365,-73.640483,21.782178217821784
524,202,12281,835,835.0,Melville / de Maisonneuve,45.4818402,-73.595379,60.7970297029703
525,202,12853,837,837.0,de Maisonneuve / Aylmer (ouest),45.505063,-73.5706812,63.62871287128713
526,202,22965,838,838.0,Drolet / Marie-Anne,45.5224026,-73.5811767,113.68811881188118
527,201,6007,841,841.0,de Laprairie / Centre,45.4813667,-73.5643189,29.885572139303484
528,201,4416,842,842.0,Graham / Kindersley,45.51405,-73.6472556,21.970149253731343
529,201,2543,843,843.0,Glengarry / Graham,45.50919,-73.6603206,12.651741293532337
530,202,13495,845,845.0,Garnier / St-Grégoire,45.5358344,-73.5870212,66.8069306930693
531,201,5383,846,846.0,Chabot / Villeray,45.5522894,-73.6130065,26.781094527363184
532,34,1922,852,852.0,Eleanor / Ottawa,45.4924627,-73.5607839,56.529411764705884
533,169,18621,855,855.0,Clark / Ontario,45.5106246,-73.5669033,110.18343195266272
534,201,22326,856,856.0,Smith / Peel,-1.0,-1.0,111.07462686567165
535,202,7326,858,858.0,Henri-Julien / de Bellechasse,45.5295036,-73.6048646,36.26732673267327
536,201,8119,859,859.0,Campus MIL (Outremont / Thérèse-Lavoie Roux),45.5231722,-73.6180971,40.39303482587065
537,200,31167,860,860.0,Parc Jean-Drapeau (Chemin Macdonald),45.5128006,-73.5311159,155.835
538,61,288,862,862.0,St-Charles / St-Sylvestre,45.5363438,-73.5127777,4.721311475409836
539,202,8337,864,864.0,Métro Villa-Maria (de Monkland / Décarie),45.4789684,-73.6195993,41.272277227722775
540,202,31572,865,865.0,Jeanne-Mance / Laurier,45.5201249,-73.5952138,156.2970297029703
541,199,3273,866,866.0,des Ormeaux / Notre-Dame,45.5992655,-73.5122607,16.44723618090452
542,97,3883,868,868.0,10e avenue / Holt,45.5519116,-73.5792112,40.03092783505155
543,202,8185,869,869.0,Christophe-Colomb / St-Joseph,45.5303649,-73.5843927,40.51980198019802
545,202,7877,876,876.0,Plessis / Logan,45.5217675,-73.5571025,38.995049504950494
547,148,7514,880,880.0,des Soeurs-Grises / Marguerite-d'Youville,45.4987648,-73.5544766,50.770270270270274
548,202,8401,884,884.0,de Castelnau / Lajeunesse,45.5403962,-73.6168179,41.58910891089109
549,195,9242,886,886.0,Fullum / Holt,45.5439195,-73.5842489,47.3948717948718
550,202,7742,887,887.0,3e avenue / Holt,45.5480035,-73.5813899,38.32673267326733
551,201,4948,888,888.0,Mozart / Waverly,45.5315651,-73.6169464,24.616915422885572
552,202,17429,890,890.0,Boucher / St-Denis,45.5278492,-73.5918613,86.28217821782178
553,202,19364,891,891.0,5e avenue / Masson,45.5475583,-73.5754719,95.86138613861387
554,202,7419,892,892.0,des Érables / Dandurand,45.5413694,-73.583974,36.727722772277225
555,201,5296,895,895.0,Bloomfield / Jean-Talon,45.5274603,-73.6241752,26.34825870646766
556,202,7961,898,898.0,Louis-Hémon / Jean-Talon,45.5517743,-73.6034784,39.41089108910891
557,201,3042,901,901.0,Notre-Dame-de-Grâce / Westmount,45.4804701,-73.6112161,15.134328358208956
558,202,3685,903,903.0,Sherbrooke / Vignal,45.4898298,-73.5896777,18.242574257425744
559,202,8659,906,906.0,Parc Ludger-Duvernay (St-André / St-Hubert),45.5314746,-73.5924205,42.866336633663366
560,201,7006,908,908.0,Lajeunesse / de Liège,45.5455805,-73.6349,34.85572139303483
562,202,14341,910,910.0,Fullum / Marie-Anne,45.5365054,-73.5680392,70.9950495049505
563,201,7982,911,911.0,Rose-de-Lima / Workman,45.4802642,-73.5809936,39.711442786069654
564,194,8434,912,912.0,Grey / Sherbrooke,45.4763443,-73.6062594,43.47422680412371
565,201,5240,913,913.0,Parc Benny (Benny / de Monkland),45.4669357,-73.6315311,26.069651741293534
566,202,6274,914,914.0,Earnscliffe / Queen-Mary,45.4818451,-73.6303738,31.059405940594058
567,202,3633,915,915.0,McLynn / Plamondon,45.4891131,-73.6470129,17.985148514851485
568,202,8188,916,916.0,St-Cyril / Wiseman,45.5208548,-73.6157396,40.53465346534654
569,201,9034,917,917.0,Boyer / Everett,45.5432845,-73.6162861,44.9452736318408
570,192,21052,918,918.0,Crescent / René-Lévesque,45.4959617,-73.5732535,109.64583333333333
571,202,11947,919,919.0,des Récollets / McGill,45.5008765,-73.5590056,59.14356435643565
572,202,11676,921,921.0,Fullum / de Rouen,45.5321322,-73.5587601,57.801980198019805
573,151,449,922,922.0,Aréna Rodrigue-Gilbert (du Tricentenaire / de Montigny),45.6514058,-73.5004127,2.9735099337748343
574,181,9319,923,923.0,Fullum / Ontario,45.5303174,-73.5548669,51.48618784530387
575,202,8152,925,925.0,la Fontaine / Alexandre-de-Sève,45.5233037,-73.5579997,40.35643564356435
576,161,459,926,926.0,Cégep Marie-Victorin,45.6174998,-73.6060113,2.8509316770186337
577,197,1415,927,927.0,Hôpital Sacré-Coeur (Forbes),45.5319436,-73.7136054,7.182741116751269
578,199,4605,928,928.0,Place Rodolphe-Rousseau (Gohier / Édouard-Laurin),45.5129939,-73.6824985,23.14070351758794
579,201,8279,929,929.0,Molson / William-Tremblay,45.5415485,-73.5650124,41.18905472636816
580,202,6942,930,930.0,Messier / St-Joseph,45.5394606,-73.5760564,34.366336633663366
581,173,507,931,931.0,Ateliers municipaux de St-Laurent (Cavendish / Poirier),45.5061758,-73.7111861,2.930635838150289
582,185,901,932,932.0,Centre des loisirs (Tassé / Grenet),45.5147343,-73.691449,4.870270270270271
583,202,11123,934,934.0,McKenna / Édouard-Montpetit,45.5011651,-73.6205475,55.06435643564357
584,194,32719,935,935.0,St-Catherine / St-Laurent,45.5099315,-73.5638067,168.65463917525773
585,202,4578,936,936.0,Du Quesne / Pierre-de-Coubertin,45.5750536,-73.5389322,22.663366336633665
586,201,1647,937,937.0,Ste-Claire / Pierre-Tétreault,45.6019133,-73.5244185,8.194029850746269
587,202,23542,938,938.0,Richmond / des Bassins,45.4875216,-73.565003,116.54455445544555
588,202,18531,941,941.0,André-Laurendeau / Rachel,45.5428981,-73.561846,91.73762376237623
589,202,11856,942,942.0,des Érables / Laurier,45.5384608,-73.5776791,58.693069306930695
590,202,24544,943,943.0,Clark / St-Viateur,45.5251603,-73.5992467,121.5049504950495
591,190,736,944,944.0,Robin / 15e rue,45.5594955,-73.6989176,3.873684210526316
592,196,1064,945,945.0,Legrand / Cartier,45.552298,-73.7073827,5.428571428571429
593,194,3365,946,946.0,Parc nature de l'Île-de-la-Visitation (Gouin / de Bruchési),45.5783318,-73.655954,17.34536082474227
594,187,4569,948,948.0,Parc Henri-Julien (Legendre / Henri-Julien),45.5460356,-73.6465985,24.433155080213904
595,202,13796,950,950.0,Place d'Youville / McGill,45.4999647,-73.5561544,68.29702970297029
596,202,28156,954,954.0,Ste-Catherine / Union,45.5036663,-73.5695761,139.3861386138614
597,200,9427,955,955.0,St-Christophe / René-Lévesque,45.5149464,-73.5562329,47.135
598,198,7008,956,956.0,Parc de Dieppe,45.5018635,-73.543961,35.39393939393939
599,202,15276,958,958.0,Panet / Ste-Catherine,45.5199567,-73.5548166,75.62376237623762
601,50,3004,960,960.0,Sainte-Catherine / Parthenais,45.5262351,-73.54895,60.08
602,180,902,961,961.0,Terminus Newman (Airlie / Lafleur),45.4250597,-73.6495992,5.011111111111111
603,117,1296,962,962.0,2e avenue / Centrale,45.4328944,-73.5968529,11.076923076923077
604,198,1472,963,963.0,Travaux publics LaSalle (Cordner / Léger),45.4452719,-73.6244836,7.434343434343434
605,197,1622,964,964.0,Lapierre / Serge,45.4385441,-73.6202163,8.233502538071066
606,201,4230,965,965.0,Brittany / Ainsley,45.5258899,-73.6500344,21.044776119402986
607,199,2171,966,966.0,Gloria / Dollard,45.429711,-73.6338834,10.909547738693467
609,201,3370,971,971.0,Parc Loyola (Somerled / Doherty),45.460023,-73.644442,16.766169154228855
610,199,2598,972,972.0,Parc Van Horne (de la Peltrie / de Westbury),45.4904723,-73.6385324,13.055276381909549
611,198,5390,974,974.0,Parc de la Confédération (Fielding / West Hill),45.471882,-73.6400217,27.22222222222222
612,198,1838,976,976.0,REV (Souligny / Desmarteau),45.6046208,-73.5159963,9.282828282828282
613,181,1306,979,979.0,des Ormeaux / de Grosbois,45.6059017,-73.5343695,7.2154696132596685
614,195,1380,980,980.0,Champdoré / de Lorimier,45.5668693,-73.6410168,7.076923076923077
615,200,2847,983,983.0,Egan / Laurendeau,45.4528579,-73.5892488,14.235
616,202,10918,984,984.0,Dorion / Rachel,45.531634,-73.5682458,54.04950495049505
617,200,6200,985,985.0,Parc Villeray (Christophe-Colomb / Jarry),45.5480925,-73.624261,31.0
618,202,8812,986,986.0,de Léry / Sherbrooke,45.5409997,-73.5582626,43.62376237623762
619,201,19375,987,987.0,St-Charles / Thomas-Keefer,45.477605,-73.573775,96.39303482587064
620,202,4507,988,988.0,Monsabré / Boileau,45.5717982,-73.5415497,22.31188118811881
621,200,4788,989,989.0,Parc Georges St-Pierre (Oxford / Upper Lachine),45.4689119,-73.6095089,23.94
622,200,1817,993,993.0,de Grosbois / Duchesneau,45.6112307,-73.5312416,9.085
623,201,6623,994,994.0,Parc Labelle (LaSalle / Henri-Duhamel),45.472561,-73.5699892,32.950248756218905
624,201,2472,995,995.0,8e avenue / Everett,45.5648113,-73.5958041,12.298507462686567
625,196,3742,996,996.0,Lacombe / Victoria,45.490628,-73.628878,19.091836734693878
626,201,3896,997,997.0,Parc MacDonald (Clanranald / Isabella),45.4826927,-73.6348128,19.383084577114428
627,202,8615,998,998.0,St-Ambroise / Louis-Cyr,45.4751933,-73.5809433,42.648514851485146
628,173,971,999,999.0,Parc de Beauséjour (Gouin / Henri-d'Arles),45.526765,-73.730423,5.61271676300578
629,200,2872,1000,1000.0,Parc Champdoré (Champdoré / de Lille),45.5691762,-73.6362934,14.36
630,118,3558,1003,1003.0,Parc Tino-Rossi (18e avenue / Everett),45.5648113,-73.5958041,30.152542372881356
631,200,2229,1004,1004.0,Stinson / Montpellier,45.5040143,-73.7044269,11.145
632,202,17248,1006,1006.0,Place du Canada (Peel / de la Gauchetière),45.4984678,-73.5684335,85.38613861386139
633,202,12506,1007,1007.0,Aylmer / Ste-Catherine,45.5043468,-73.5689485,61.91089108910891
634,112,6589,1008,1008.0,Ste-Catherine / Parthenais,45.5262351,-73.54895,58.830357142857146
635,193,28032,1009,1009.0,de Lanaudière / du Mont-Royal,45.5302211,-73.5769965,145.24352331606218
636,202,10518,1010,1010.0,Métro Pie-IX (Pierre-de-Coubertin / de la Salle),45.5552411,-73.5508221,52.06930693069307
637,37,469,1011,1011.0,St-Joseph / 21e avenue Lachine,45.4335565,-73.6840434,12.675675675675675
638,201,5675,1016,1016.0,Parc Howard (de l'Épée / de Liège),45.5616903,-73.610512,28.233830845771145
639,185,685,1017,1017.0,Sabrevois / des Récollets,45.5832879,-73.6327636,3.7027027027027026
640,201,14185,1020,1020.0,Parc Maisonneuve (Viau / Sherbrooke),45.5649368,-73.5555911,70.57213930348259
641,200,4701,1024,1024.0,6e avenue / Bélanger,45.5545638,-73.5961568,23.505
642,202,11925,1025,1025.0,Marquette / Gilford,45.5338507,-73.5789116,59.03465346534654
643,193,989,1026,1026.0,Duchesneau / de Marseille,45.6096263,-73.522739,5.124352331606218
644,195,12875,1027,1027.0,St-Antoine / de la Montagne,45.4953717,-73.5685891,66.02564102564102
645,175,2212,1032,1032.0,Parc des Hirondelles (Fleury / André-Jobin),45.5760003,-73.6467648,12.64
646,202,21431,1033,1033.0,Parc Baldwin (Fullum / Sherbrooke),45.5340705,-73.5626507,106.0940594059406
647,202,11077,1034,1034.0,Parc Père-Marquette (de Lanaudière / de Bellechasse),45.539324,-73.5958784,54.836633663366335
649,20,105,1037,1037.0,Alexis-Nihon / St-Louis,45.5003388,-73.6826205,5.25
650,152,437,1038,1038.0,Parc Marlborough (Beauzèle / Robichaud),45.5223415,-73.7216789,2.875
651,192,1273,1040,1040.0,Parc Reine-Élizabeth (Penniston / Crawford),45.4391447,-73.5917366,6.630208333333333
652,202,34283,1041,1041.0,Parc du Pélican (1ère avenue / Masson),45.5451997,-73.5764507,169.71782178217822
653,182,7970,1044,1044.0,Gilford / des Érables,45.5375266,-73.5751244,43.79120879120879
654,144,494,1048,1048.0,41e avenue / Victoria,45.440347,-73.7023133,3.4305555555555554
655,163,567,1050,1050.0,Parc Ivan-Franko (33e avenue / Victoria),45.43746,-73.6935318,3.478527607361963
656,202,4712,1053,1053.0,Pratt / Bates,45.5169478,-73.6263156,23.326732673267326
657,201,4755,1054,1054.0,McCulloch / de la Côte Ste-Catherine,45.5157751,-73.6006093,23.65671641791045
658,142,411,1055,1055.0,Parc Sauvé (Balzac / de Bayonne),45.5990861,-73.6369479,2.8943661971830985
659,50,2959,1056,1056.0,Ste-Catherine / Sanguinet,45.5128938,-73.5612479,59.18
660,193,1585,1057,1057.0,de Côme / Jean-Talon,45.588303,-73.5778372,8.212435233160623
661,98,9622,1058,1058.0,Wellington / 2e avenue,45.4575911,-73.5675594,98.18367346938776
662,99,10616,1059,1059.0,Wellington / Hickson,45.4650577,-73.5667753,107.23232323232324
663,201,3195,1062,1062.0,Beurling / Godin,45.4479158,-73.5838187,15.895522388059701
664,202,7886,1068,1068.0,Métro Fabre (Marquette / Jean-Talon),45.5474078,-73.6076689,39.039603960396036
665,153,5162,1069,1069.0,Métro Plamondon (de Kent / Victoria),45.494564,-73.638702,33.73856209150327
666,202,22141,1070,1070.0,Métro Place-des-Arts (du Président-Kennedy / Jeanne-Mance),45.5082046,-73.5688144,109.60891089108911
667,202,8814,1071,1071.0,Letourneux / Ste-Catherine,45.5507836,-73.5341,43.633663366336634
668,201,19361,1072,1072.0,Métro Jarry (Lajeunesse / Jarry),45.5435597,-73.627772,96.32338308457712
669,202,19948,1073,1073.0,Gilford / St-Denis,45.5251147,-73.586006,98.75247524752476
670,44,184,1075,1075.0,Parc Maurice Bélanger (Hebert / Forest),45.5880822,-73.6322231,4.181818181818182
671,201,7997,1076,1076.0,Durocher / Beaumont,45.5280002,-73.6192358,39.78606965174129
672,202,14178,1077,1077.0,Marie-Anne / Papineau,45.5317737,-73.5724462,70.18811881188118
673,201,3855,1082,1082.0,Péloquin / Fleury,45.5570222,-73.6599016,19.17910447761194
674,93,2600,1084,1084.0,Des Érables / Villeray,45.5539483,-73.6115748,27.956989247311828
676,174,674,1086,1086.0,Parc Chopin (Dumouchel / Tessier),45.5707266,-73.737086,3.8735632183908044
677,201,5699,1087,1087.0,27e avenue / Rosemont,45.5636787,-73.5716045,28.35323383084577
678,153,19731,1090,1090.0,Métro Beaudry (Montcalm / de Maisonneuve),45.519132,-73.5578897,128.9607843137255
679,202,5048,1091,1091.0,Durocher / St-Viateur,45.5207958,-73.6032707,24.99009900990099
680,168,690,1095,1095.0,Langelier / Marie-Victorin,45.6145192,-73.6122447,4.107142857142857
681,175,7496,1096,1096.0,Drummond / Sherbrooke,45.5003924,-73.578168,42.83428571428571
682,202,6756,1101,1101.0,de Rouen / Lespérance,45.5386271,-73.5528392,33.445544554455445
683,190,1204,1103,1103.0,Parc Wilfrid-Bastien (Lacordaire / des Galets),45.5864002,-73.5952181,6.336842105263158
684,183,867,1104,1104.0,Parc Delorme (Malouin / Laferté),45.5904902,-73.5902694,4.737704918032787
685,187,804,1105,1105.0,Parc St-Laurent (Salk / Thomas-Chapais),45.6062348,-73.6287838,4.2994652406417115
686,175,634,1107,1107.0,Parc Beaulac (rue Élizabeth),45.5200557,-73.6779515,3.6228571428571428
687,200,2071,1108,1108.0,CHSLD St-Michel (8e avenue / Jarry),45.5616903,-73.610512,10.355
688,190,598,1109,1109.0,Mairie d'arrondissement Montréal-Nord (Hébert / de Charleroi),45.593985,-73.6376721,3.1473684210526316
689,196,1804,1110,1110.0,Parc Luigi-Pirandello (de Bretagne / Jean-Rivard),45.5794057,-73.6025888,9.204081632653061
690,197,1367,1111,1111.0,Parc LaSalle (10e avenue / Victoria),45.4380555,-73.6727393,6.939086294416244
691,188,1120,1112,1112.0,Parc Stoney-Point (St-Joseph / 47e avenue),45.4365683,-73.7083697,5.957446808510638
692,157,6372,1113,1113.0,Parc riverain de Lachine (des Iroquois),45.4305431,-73.6690244,40.5859872611465
693,183,732,1114,1114.0,Bibliothèque Jean-Corbeil (Goncourt / Place Montrichard),45.6027276,-73.5579303,4.0
694,195,1832,1115,1115.0,Aréna Chaumont (Chaumont / des Ormeaux),45.6109266,-73.5467345,9.394871794871795
695,190,1289,1116,1116.0,Parc Chamberland (Dorais / de l'Église),45.502989,-73.689113,6.78421052631579
696,164,618,1117,1117.0,Parc Noel-Nord (Toupin / Keller),45.5175831,-73.7266141,3.768292682926829
697,192,1920,1118,1118.0,Parc du Bois-Franc (de l'Équateur / des Andes),45.5131776,-73.7130609,10.0
698,173,588,1119,1119.0,Parc Grovehill (St-Antoine / Ivan-Franko),45.4398238,-73.6948782,3.398843930635838
699,197,1688,1120,1120.0,Parc Kirkland (des Érables / Boyer),45.4460609,-73.6507995,8.568527918781726
700,195,1540,1121,1121.0,Parc Painter (Marcotte / Quenneville),45.5286305,-73.6773124,7.897435897435898
701,201,3600,1123,1123.0,Bibliothèque d'Ahuntsic (Lajeunesse / Fleury),45.5534001,-73.6622545,17.91044776119403
702,202,11416,1124,1124.0,La Tour de Montréal (Pierre-de-Coubertin / Bennett),45.5597053,-73.5515544,56.51485148514851
703,202,4006,1125,1125.0,CCI Outremont (Dollard / Durcharme),45.5200191,-73.6189073,19.831683168316832
704,177,1384,1128,1128.0,Parc Summerlea (53e avenue / St-Joseph),45.4383671,-73.7154669,7.8192090395480225
705,169,1069,1132,1132.0,Parc Ottawa (de Belleville / Fleury),45.58116,-73.6412434,6.325443786982248
706,28,620,1133,1133.0,Parc Turin (Chambord / Jean-Talon),45.5446806,-73.6101606,22.142857142857142
707,71,238,1136,1136.0,Terminus Le Carrefour (Terry-Fox / Le Carrefour),45.5684203,-73.7468728,3.352112676056338
708,202,16019,1137,1137.0,Métro Lionel-Groulx (St-Jacques / Atwater),45.4836285,-73.5797026,79.3019801980198
709,202,13121,1139,1139.0,CHU Ste-Justine (de la Côte Ste-Catherine / Hudson),45.5039817,-73.6228395,64.95544554455445
710,196,886,1140,1140.0,Parc St-Laurent (Dutrisac),45.5259138,-73.6891115,4.520408163265306
711,197,2689,1142,1142.0,Parc St-Louis (St-Joseph / 34e avenue),45.4328398,-73.6934915,13.649746192893401
712,20,84,1145,1145.0,Parc d'Antioche ( Place d'Antioche / St-Zotique),45.5953519,-73.5586762,4.2
713,64,6738,1146,1146.0,Duluth /St-Denis,45.5205975,-73.5759705,105.28125
714,202,11966,1147,1147.0,Fullum / Terrasse Mercure,45.5354834,-73.5659391,59.23762376237624
715,70,3054,1148,1148.0,Hutchison/ Van Horne,45.5249771,-73.6106864,43.628571428571426
716,202,5199,1149,1149.0,Letourneux / Hochelaga,45.5546589,-73.546603,25.737623762376238
717,202,12251,1150,1150.0,Chambord/ Beaubien,45.5399002,-73.5993621,60.648514851485146
718,175,15384,1151,1151.0,de la Montagne/ Sherbrooke,45.4997438,-73.5789384,87.90857142857143
719,161,456,1152,1152.0,19e avenue / St-Antoine,45.4397787,-73.6813706,2.8322981366459627
720,202,7277,1153,1153.0,de la Peltrie / de la Côte-des-Neiges,45.4997974,-73.6301753,36.024752475247524
721,21,881,1154,1154.0,Mozart / Casgrain,45.5347253,-73.6145206,41.95238095238095
722,153,9953,1155,1155.0,St-Hubert /de Maisonneuve,45.5161321,-73.5604969,65.05228758169935
723,202,5015,1156,1156.0,Everett / Garnier,45.5475815,-73.6122085,24.826732673267326
724,202,2692,1157,1157.0,Michelet / Jean-Talon,45.5762911,-73.583529,13.326732673267326
725,196,1092,1158,1158.0,Parc Ferland (Belleherbe / Albanel),45.595768,-73.5953039,5.571428571428571
726,185,740,1159,1159.0,Place du Village (St-Jean-Baptiste / Notre-Dame),45.6400029,-73.490113,4.0
727,201,5724,1160,1160.0,Monk / Biencourt,45.4586632,-73.5960227,28.47761194029851
728,202,17019,1161,1161.0,Durocher / Sherbrooke,45.5070762,-73.5722852,84.25247524752476
729,202,18549,1162,1162.0,Beaudry / Ontario,45.5214582,-73.5620499,91.82673267326733
730,111,6743,1163,1163.0,Parc Lalancette (de Rouen/ Valois),45.548145,-73.5471261,60.747747747747745
731,201,7590,1164,1164.0,Bennett / Adam,45.5536514,-73.5341495,37.76119402985075
732,201,2932,1165,1165.0,Cégep André-Laurendeau (Lapierre),45.4360551,-73.6057752,14.587064676616915
733,187,998,1166,1166.0,Mairie d'arrondissement LaSalle (Dupras / Jeannette),45.429167,-73.6628097,5.336898395721925
734,164,580,1167,1167.0,Dixie / 54e avenue,45.4433803,-73.7178916,3.5365853658536586
735,56,3618,1168,1168.0,Ste-Émilie / St-Rémi,45.4697664,-73.5892588,64.60714285714286
736,194,16080,1169,1169.0,Alexandre-DeSève  / Ontario,45.5243588,-73.5605344,82.88659793814433
737,193,5105,1170,1170.0,Bloomfied / St-Viateur,45.5191037,-73.6051905,26.45077720207254
738,192,2157,1171,1171.0,Parc Félix-Leclerc (François-Boivin / St-Zotique),45.591455,-73.5627553,11.234375
739,71,628,1172,1172.0,2e avenue /centrale,45.4328946,-73.5968569,8.845070422535212
740,182,973,1173,1173.0,Métro de la Concorde (Léo-Lacombe),45.5604899,-73.7091851,5.346153846153846
741,176,682,1174,1174.0,Parc Henri-Dunant (Léger / Henri-Dunant),45.5684396,-73.6752021,3.875
742,138,20211,1175,1175.0,du Parc-Lafontaine / Rachel,45.5254742,-73.5743251,146.45652173913044
743,187,7973,1176,1176.0,Bloomfield / Ball,45.5299594,-73.632946,42.63636363636363
744,47,6673,1177,1177.0,Métro Laurier (Bibaud / Rivard),45.5278391,-73.5895747,141.9787234042553
745,177,14430,1178,1178.0,Marché Jean-Talon (Casgrain / Shamrock),45.5351901,-73.6154822,81.52542372881356
746,176,10305,1179,1179.0,de l'Hôtel-de-Ville / Ontario,45.5135916,-73.5662556,58.55113636363637
747,175,5279,1180,1180.0,Chambord / de Castelnau,45.5453692,-73.6117625,30.165714285714287
748,173,12126,1181,1181.0,Union / Ste-Catherine,45.5040272,-73.5697022,70.09248554913295
749,169,26489,1182,1182.0,Peel / Ottawa,45.4941996,-73.5599846,156.7396449704142
750,165,10420,1183,1183.0,HEC (Decelles / Jean-Brillant),45.4977228,-73.6192533,63.15151515151515
751,57,1160,1184,1184.0,Northcliffe / Notre-Dame-de-Grâce,45.477802,-73.6150128,20.350877192982455
752,167,6193,1185,1185.0,Wolfe / de la Gauchetière,45.5162224,-73.5529733,37.08383233532934
753,155,2199,1186,1186.0,Bassin olympique (Chemin du Chenal le Moyne),45.5169025,-73.5272455,14.187096774193549
754,22,308,1187,1187.0,21e avenue / St-Joseph Lachine,45.4335115,-73.6833906,14.0
756,51,3030,1189,1189.0,Bélanger / St-Laurent,45.5331335,-73.6147285,59.411764705882355
757,119,1150,1190,1190.0,Louisbourg / O'brien,45.5306042,-73.70377,9.663865546218487
758,38,499,1191,1191.0,Métro St-Laurent Dépôt ( de Maisonneuve / St-Laurent),45.5106881,-73.5653074,13.131578947368421
759,99,10605,1192,1192.0,Wellington / Gordon,45.4611038,-73.5672373,107.12121212121212
760,139,1902,1193,1193.0,St-Joseph Lachine / 21e avenue,45.4335212,-73.6835432,13.683453237410072
761,140,9724,1194,1194.0,St-Rémi / Ste Émilie,45.4697664,-73.5892588,69.45714285714286
762,106,9598,1195,1195.0,Henri-Julien / Duluth,45.5197013,-73.5766625,90.54716981132076
763,134,3124,1196,1196.0,de Versailles / St-Jacques,45.4927744,-73.5688573,23.313432835820894
764,44,1447,1197,1197.0,Bossuet / Sherbrooke,45.576113,-73.5469437,32.88636363636363
765,127,5845,1198,1198.0,de Mentana / St-Joseph,45.529107,-73.584803,46.023622047244096
766,126,13809,1199,1199.0,St-Denis / Ste-Catherine,45.5137229,-73.5603105,109.5952380952381
767,120,2844,1200,1200.0,de Châteauguay / Ropery,45.4793011,-73.5662945,23.7
768,67,155,1201,1201.0,Parc de l'Hôtel-de-Ville (Laurendeau / Ste-Julie),45.6308738,-73.4950389,2.3134328358208953
769,63,100,1202,1202.0,Parc des Vétérans (des Vétérans / Broadway),45.6315812,-73.5079604,1.5873015873015872
770,46,77,1203,1203.0,Centre récréatif Édouard-Rivet (Lesage / Notre-Dame),45.6283593,-73.5000479,1.673913043478261
771,54,9889,1204,1204.0,Rachel / du Parc-Lafontaine,45.5254474,-73.5742486,183.12962962962962
772,106,5076,1205,1205.0,Bibliothèque et Complexe aquatique Rosemont (9e avenue / Rosemont),45.5520234,-73.5817184,47.886792452830186
773,96,344,1206,1206.0,Parc Chenier (de l'Aréna / Chenier),45.6024865,-73.5432905,3.5833333333333335
774,72,244,1207,1207.0,Parc de Montréal-Est (Notre-Dame Est / David),45.6126908,-73.5100499,3.388888888888889
775,29,2203,1208,1208.0,Notre-Dame / Guy,45.4900138,-73.5672063,75.96551724137932
776,10,1345,1209,1209.0,Sainte-Catherine / Guy,45.4951965,-73.5778345,134.5
777,25,142,1210,1210.0,Dépôt Festivals ( de Maisonneuve / St-Laurent),45.5106881,-73.5653074,5.68
778,49,4498,1212,1212.0,Wolfe / Ste-Catherine,45.517944,-73.5565475,91.79591836734694
779,1,2,1213,1213.0,René- Lévesque /Papineau,45.5209516,-73.5499866,2.0
780,97,4764,1214,1214.0,René-Lévesque / Papineau,45.5209208,-73.5499048,49.11340206185567
781,96,1340,1215,1215.0,6e avenue / Villeray,45.5587396,-73.6058904,13.958333333333334
782,92,6067,1216,1216.0,Parc Lalancette (de Rouen / Valois),45.548145,-73.5471261,65.94565217391305
783,92,17299,1217,1217.0,Métro Laurier (Berri / Laurier),45.5275891,-73.5890758,188.0326086956522
784,91,4417,1218,1218.0,Métro Viau (Viau / Pierre-de-Coubertin),45.5630842,-73.5481941,48.53846153846154
785,90,17352,1219,1219.0,Guy / Sainte-Catherine,45.4949751,-73.5777704,192.8
786,88,7086,1220,1220.0,Dorion / Sherbrooke,45.5293521,-73.5633184,80.52272727272727
787,85,2533,1221,1221.0,Parc Joseph-Robin (18e avenue / Everett),45.5648113,-73.5958041,29.8
788,46,119,1222,1222.0,Mayfield / St-Martin O,45.5530175,-73.7582266,2.5869565217391304
789,61,142,1223,1223.0,de Chenonceau / Chomedey,45.56157,-73.75448,2.3278688524590163
790,69,436,1224,1224.0,Gare Montpellier (Muir / de la Côte-Vertu),45.5237405,-73.6716992,6.318840579710145
791,48,100,1225,1225.0,Gare du Ruisseau (Dutrisac / Henri-Bourassa),45.5281437,-73.6925454,2.0833333333333335
792,81,1455,1226,1226.0,Parc Nicolas-Tillemont (des Érables / Villeray),45.5546365,-73.6125522,17.962962962962962
793,78,2758,1227,1227.0,CHSLD Robert Cliche (de Bellechasse / 16e avenue),45.557568,-73.579191,35.35897435897436
794,54,123,1228,1228.0,11e avenue / du Souvenir,45.5693391,-73.7047273,2.2777777777777777
795,74,249,1229,1229.0,Parc du Mail (Bois de Coulonges / du Mail),45.598335,-73.5459673,3.364864864864865
796,75,2226,1230,1230.0,Fabrik8 (Waverly / Jean-Talon),45.5333073,-73.6208224,29.68
797,81,1874,1231,1231.0,Parc Beaubien Outremont (Stuart / St-Viateur),45.5159697,-73.6082751,23.135802469135804
798,81,1929,1232,1232.0,Parc Olympique (Pie-IX / Sherbrooke),45.5548245,-73.5537028,23.814814814814813
799,77,893,1233,1233.0,Parc Hébert (Colbert / Provencher),45.5723781,-73.5937046,11.597402597402597
800,76,341,1234,1234.0,Parc Courbertin (Valéry / Perrier),45.5839877,-73.6080933,4.4868421052631575
801,81,678,1235,1235.0,Parc Garibaldi (Liénart / Bélanger),45.5864765,-73.5703969,8.37037037037037
802,74,309,1236,1236.0,Alton-Goldbloom / Notre-Dame,45.545026,-73.7378767,4.175675675675675
803,68,138,1237,1237.0,Parc Charleroi (Alfred / Louis-Francoeur),45.5995347,-73.6236025,2.0294117647058822
804,73,389,1238,1238.0,Parc Aimé-Léonard (Gouin / Ste-Gertrude),45.6083582,-73.6385062,5.328767123287672
805,80,355,1239,1239.0,Parc Maurice-Bélanger (Hébert / Denommée),45.5877138,-73.6317182,4.4375
806,81,5908,1240,1240.0,CÉGEP du Vieux-Montréal (Ontario / de l'Hôtel-de-Ville),45.5140122,-73.5659867,72.93827160493827
807,81,2601,1241,1241.0,Complexe sportif Claude Robillard (Émile-Journault),45.5529855,-73.6386477,32.111111111111114
808,74,203,1242,1242.0,Gare St-Michel / Montréal-Nord (Pie-IX / 56e),45.5831978,-73.629787,2.7432432432432434
809,81,603,1243,1243.0,IUSMM (Georges-Villeneuve),45.5865659,-73.5293725,7.444444444444445
810,80,680,1244,1244.0,Parc Eusèbe-Ménard (Gouin / St-Vital),45.5925395,-73.6487482,8.5
811,78,345,1245,1245.0,CHSLD Joseph-François-Perrault (St-Michel / Everett),45.5596973,-73.6014596,4.423076923076923
812,79,570,1246,1246.0,Mairie d'arrondissement St-Laurent (Beaudet / Marcel-Laurin),45.5068242,-73.681848,7.215189873417722
813,80,1030,1247,1247.0,Bibliothèque du Vieux-St-Laurent (de l'Église / Filiatrault),45.5128433,-73.6761242,12.875
814,81,6165,1248,1248.0,Métro St-Laurent 2 ( de Maisonneuve / St-Laurent),45.5107698,-73.5649373,76.11111111111111
815,62,149,1249,1249.0,du Mans / des Alouettes,45.5803349,-73.6847187,2.403225806451613
816,46,100,1250,1250.0,Pierre-Péladeau / du Centropolis,45.5625118,-73.7437065,2.1739130434782608
817,52,95,1251,1251.0,Jeanne-Mance / St-Martin O,45.5574215,-73.7480604,1.8269230769230769
818,44,113,1252,1252.0,Parc Armand-Bombardier (Perras / Armand-Bombardier),45.6391233,-73.5961118,2.5681818181818183
819,12,68,1253,1253.0,Parc Angrignon ( Lacroix / des Trinitaires),45.4464195,-73.6014273,5.666666666666667
820,74,2721,1254,1254.0,Collège de Rosemont (15e avenue / Beaubien),45.5577499,-73.5838012,36.770270270270274
821,45,97,1255,1255.0,Le Corbusier / St-Martin O,45.5650067,-73.7319054,2.1555555555555554
822,71,1543,1256,1256.0,Métro Cadillac (Cadillac / Sherbrooke),45.5768333,-73.5464742,21.732394366197184
823,57,122,1257,1257.0,McNamara / St-Martin O,45.5712036,-73.7235188,2.1403508771929824
824,44,94,1258,1258.0,de Grenoble / de Cassis,45.5788972,-73.7049271,2.1363636363636362
825,4,25,1259,1259.0,Parc Angrignon (Lacroix / des Trinitaires),45.4444694,-73.6026478,6.25
826,64,4608,1260,1260.0,Berri /Ste-Catherine,45.5146906,-73.5599014,72.0
827,63,375,1261,1261.0,Préfontaine / Marcel-Pépin,45.5436538,-73.5594206,5.9523809523809526
828,7,380,1262,1262.0,St-Mathieu / Tupper,45.4932782,-73.5782891,54.285714285714285
829,50,3591,1263,1263.0,de la Roche / Marie-Anne,45.52766,-73.576124,71.82
830,50,1964,1264,1264.0,Soeurs-Grises / Margueritte d'Youville,45.4988464,-73.5546298,39.28
831,3,225,1265,1265.0,Duluth / du Parc,45.5137914,-73.5824025,75.0
832,20,1408,1266,1266.0,Métro Beaudry ( Beaudry / Ste-Catherine),45.5188484,-73.5559458,70.4
833,50,2691,1267,1267.0,St-Hubert / de Maisonneuve (nord),45.5161321,-73.5604969,53.82
834,50,2776,1268,1268.0,St-Hubert / de Maisonneuve (sud),45.5158684,-73.5600838,55.52
835,50,396,1269,1269.0,Hochelaga / de l'Assomption,45.5668831,-73.5394382,7.92
836,50,2956,1270,1270.0,de Brébeuf / Gilford,45.530952,-73.581585,59.12
837,50,1010,1271,1271.0,Métro Plamondon (Carlton / Victoria),45.4953008,-73.6394939,20.2
838,46,403,1272,1272.0,de Chambly / de Rouen,45.5471031,-73.5489245,8.76086956521739
839,49,2455,1273,1273.0,Montmorency / Richardson,45.4851133,-73.5604384,50.10204081632653
840,18,1654,1274,1274.0,Ste-Catherine / St-Mathieu,45.4938326,-73.5791422,91.88888888888889
841,48,1803,1275,1275.0,de Maisonneuve / Mansfield SE,45.5022935,-73.5733064,37.5625
842,48,2665,1276,1276.0,BAnQ (Berri),45.5160139,-73.5629196,55.520833333333336
843,48,1086,1277,1277.0,de Bellechasse / Pie-IX,45.5612927,-73.5761133,22.625
844,47,8693,1278,1278.0,Parc Jeanne-Mance (monument à sir George-Étienne Cartier),45.5148664,-73.5847586,184.95744680851064
845,47,2676,1279,1279.0,Place des Festivals ( du Président-Kennedy / de Bleury),45.5076439,-73.569324,56.93617021276596
846,33,82,1280,1280.0,Parc Ernest-Rouleau (Gouin),45.6313127,-73.616315,2.484848484848485
847,46,1766,1281,1281.0,St-Laurent / St-Jacques,45.5064957,-73.556494,38.391304347826086
848,46,1105,1282,1282.0,Hôpital Général Juif (de la Côte-Ste-Catherine / Légaré),45.4962414,-73.6298387,24.02173913043478
849,41,820,1283,1283.0,Irene / St-Jacques,45.480133,-73.5839313,20.0
850,39,2902,1284,1284.0,Ste-Catherine / Bishop,45.4966367,-73.5761287,74.41025641025641
851,34,362,1285,1285.0,Delisle / George-Vanier,45.485974,-73.5728323,10.647058823529411
852,34,1688,1286,1286.0,Evans / Clark,45.5110837,-73.5679775,49.64705882352941
853,33,3714,1287,1287.0,Duluth  / St-Denis,45.5208024,-73.5757989,112.54545454545455
854,32,2705,1288,1288.0,St-Marc / Ste-Catherine,45.4928566,-73.5806543,84.53125
855,26,1795,1289,1289.0,Métro Beaudry ( Montcalm / Ste-Catherine),45.5183846,-73.5563515,69.03846153846153
856,29,1858,1290,1290.0,de l'Hôtel-de-Ville / Villeneuve,45.5234808,-73.5873276,64.06896551724138
857,28,1029,1291,1291.0,St-Mathieu / Baile,45.4928904,-73.5776126,36.75
858,27,191,1292,1292.0,d'Iberville / Fleury,45.5754318,-73.6474305,7.074074074074074
859,20,528,1293,1293.0,Square Viger (Berri / Viger),45.5122121,-73.5546289,26.4
860,18,2404,1294,1294.0,Bordeaux / Mont-Royal,45.5345836,-73.5731596,133.55555555555554
861,2,3,1295,1295.0,Keller / Cousineau,45.5235502,-73.7138857,1.5
862,4,189,1296,1296.0,Métro Beaudry (Beaudry / Ste-Catherine),45.5188845,-73.5559385,47.25
